stop_id,stop_code,stop_name,location_type,parent_station,stop_lon,stop_lat
900150102,Liststraße,Liststraße,0,9001501,9.94908842283,48.3696734697
900160001,Pranger,Pranger,0,9001600,9.98832689491,48.3609300167
900136201,Telefunken,Telefunken,0,9001362,9.97336252029,48.395665814
900160003,Pranger,Pranger,0,9001600,9.98858971182,48.3601960942
900101502,Herdbrücke,Herdbrücke,0,9001015,9.99576366159,48.3964447058
900110201,Loherstraße,Loherstraße,0,9001102,9.96921227904,48.4322023313
900110202,Loherstraße,Loherstraße,0,9001102,9.96869985673,48.4327460567
900160002,Pranger,Pranger,0,9001600,9.98817972222,48.360925
900172902,Meininger Allee,Meininger Allee,0,9001729,10.0084520807,48.3948874315
900172901,Meininger Allee,Meininger Allee,0,9001729,10.0081836379,48.39479421
900107312,Thüringenweg,Thüringenweg,0,9001073,10.0194129477,48.4332048563
900107311,Thüringenweg,Thüringenweg,0,9001073,10.0196054579,48.4332365
900134301,Sportplatz TSG,Sportplatz TSG,0,9001343,9.94493861111,48.3978038889
9001736,Wiley Club,Wiley Club,1,,10.0077774432,48.3809226844
9001735,Marlene-Dietrich-Straße,Marlene-Dietrich-Straße,1,,10.0086752778,48.3850094444
9001734,Bradleystraße,Bradleystraße,1,,10.0117130491,48.3857227271
900163501,Reutlinger Straße,Reutlinger Straße,0,9001635,9.97011388889,48.35455
9001732,Escheugraben,Escheugraben,1,,10.0060536111,48.3876563889
9001731,Steubenstraße,Steubenstraße,1,,10.0078056154,48.3902008532
9001097,Neutorstraße,Neutorstraße,1,,9.98612558934,48.4028272199
9001634,Tannenplatz Zentrum,Tannenplatz Zentrum,1,,9.9729123332,48.3514827219
9001635,Reutlinger Straße,Reutlinger Straße,1,,9.97003861111,48.3544880556
9001632,Kemptener Straße,Kemptener Straße,1,,9.97295657222,48.3464496067
9001633,Saulgauer Straße,Saulgauer Straße,1,,9.96829681316,48.3483189455
9001739,Donauklinik,Donauklinik,1,,9.99348796068,48.3932697959
9001004,Pauluskirche,Pauluskirche,1,,9.99503440349,48.404748323
900173202,Escheugraben,Escheugraben,0,9001732,10.0060536111,48.3876563889
900173201,Escheugraben,Escheugraben,0,9001732,10.0052567271,48.3881024151
900124702,Manfred-Börner-Straße,Manfred-Börner-Straße,0,9001247,9.94275357912,48.4197437633
900136202,Telefunken,Telefunken,0,9001362,9.9701575,48.3951027778
900124701,Manfred-Börner-Straße,Manfred-Börner-Straße,0,9001247,9.94272,48.4197733333
9001321,Schongauer Weg,Schongauer Weg,1,,9.9485,48.3934194444
9001322,Leonberger Weg,Leonberger Weg,1,,9.95021856965,48.3918256875
9001323,Gleißelstetten,Gleißelstetten,1,,9.94709583333,48.3877536111
9001324,Fünf-Bäume-Weg Mitte,Fünf-Bäume-Weg Mitte,1,,9.94501972222,48.3965033333
9001325,Maienweg Nord,Maienweg Nord,1,,9.94570666667,48.3948177778
9001329,Oberer Roter Berg,Oberer Roter Berg,1,,9.93533703913,48.401416273
900135904,Haßlerstraße,Haßlerstraße,0,9001359,9.97806722222,48.3884594444
900136701,Auf der Gölde,Auf der Gölde,0,9001367,9.96819861111,48.4006925
900138001,Saarlandstraße,Saarlandstraße,0,9001380,9.97073265251,48.3880157125
900138002,Saarlandstraße,Saarlandstraße,0,9001380,9.97031722222,48.3879344444
900121001,Burgunderweg,Burgunderweg,0,9001210,9.96134223504,48.4087949217
900107402,Haslacher Weg,Haslacher Weg,0,9001074,10.0137347215,48.429860953
900107401,Haslacher Weg,Haslacher Weg,0,9001074,10.0151992845,48.4311134021
900270202,"Blaustein, Galgenbergstraße",Galgenbergstraße,0,9002702,9.91635638889,48.4146722222
900270201,"Blaustein, Galgenbergstraße",Galgenbergstraße,0,9002702,9.91567904732,48.4153074384
900135903,Haßlerstraße,Haßlerstraße,0,9001359,9.97862138889,48.3893241667
900139502,Barbaralinde,Barbaralinde,0,9001395,9.95006361049,48.3790745656
900100009,ZOB,ZOB,0,9001000,9.98361222222,48.3982872222
900139501,Barbaralinde,Barbaralinde,0,9001395,9.95047057902,48.3792982221
9001600,Pranger,Pranger,1,,9.98858971182,48.3601960942
900100003,ZOB,ZOB,0,9001000,9.98385056212,48.3979154276
900100002,ZOB,ZOB,0,9001000,9.98383124117,48.3980229938
900100001,ZOB,ZOB,0,9001000,9.98383278315,48.3981227666
9001099,SWU Betriebshof,SWU Betriebshof,1,,9.96826583333,48.3963811111
9001552,Firma Rheinzink,Firma Rheinzink,1,,9.92544627258,48.3560278679
9001550,Firma Nanz,Firma Nanz,1,,9.94381888889,48.3671463889
9001555,Firma Wieland,Firma Wieland,1,,9.94423055556,48.3565972222
9001554,Firma UPS,Firma UPS,1,,9.92631333333,48.3539605556
9001395,Barbaralinde,Barbaralinde,1,,9.95006361049,48.3790745656
900170302,Jakobsruhe,Jakobsruhe,0,9001703,9.98946910199,48.3818580858
900170301,Jakobsruhe,Jakobsruhe,0,9001703,9.99023138889,48.3814225
9001391,Oberer Kuhberg,Oberer Kuhberg,1,,9.95300833333,48.3818425
9001390,Kuhberg Schulzentrum,Kuhberg Schulzentrum,1,,9.95639698932,48.3835689334
9001392,Am Hochsträß,Am Hochsträß,1,,9.94884876024,48.3804711735
9001254,Lise-Meitner-Straße,Lise-Meitner-Straße,1,,9.93525472222,48.4187977778
9001255,Heilmeyersteige,Heilmeyersteige,1,,9.95074722809,48.4135118652
9001256,Virchowstraße,Virchowstraße,1,,9.94617369243,48.4140844664
9001257,Söflinger Weinberge,Söflinger Weinberge,1,,9.94200555123,48.4122282331
9001251,Kelternweg,Kelternweg,1,,9.96023638889,48.413595
900173501,Marlene-Dietrich-Straße,Marlene-Dietrich-Straße,0,9001735,10.0087355556,48.38496
900173502,Marlene-Dietrich-Straße,Marlene-Dietrich-Straße,0,9001735,10.0086752778,48.3850094444
900165302,"Gögglingen, Riedlenstraße",Riedlenstraße,0,9001653,9.936715,48.33487
900122501,Bleicher Hag,Bleicher Hag,0,9001225,9.97187972222,48.4060236111
900176802,Hafnerweg,Hafnerweg,0,9001768,10.0181247222,48.3661166667
900176801,Hafnerweg,Hafnerweg,0,9001768,10.0178692932,48.366432596
900139201,Am Hochsträß,Am Hochsträß,0,9001392,9.94884876024,48.3804711735
900171402,Kasernstraße,Kasernstraße,0,9001714,10.0070268319,48.396610748
900171401,Kasernstraße,Kasernstraße,0,9001714,10.006535535,48.3967344591
9001280,Beim Türmle,Beim Türmle,1,,9.95646944444,48.40655
9001044,Neuer Friedhof,Neuer Friedhof,1,,9.9865325,48.4157891667
900126101,Traminerweg,Traminerweg,0,9001261,9.95699484589,48.4113781831
900125102,Kelternweg,Kelternweg,0,9001251,9.96023638889,48.413595
900125101,Kelternweg,Kelternweg,0,9001251,9.95996444462,48.4133673495
900130101,Ottiliengasse,Ottiliengasse,0,9001301,9.95561167607,48.3968636325
900130102,Ottiliengasse,Ottiliengasse,0,9001301,9.95551138889,48.3966844444
900125602,Virchowstraße,Virchowstraße,0,9001256,9.94617369243,48.4140844664
9001078,Ludwig-Beck-Straße,Ludwig-Beck-Straße,1,,10.0068939333,48.4220850952
9001079,Eichenplatz,Eichenplatz,1,,10.0032022222,48.4191294444
9001173,Auf dem Hart,Auf dem Hart,1,,9.98758034357,48.4392170356
900133302,Torstraße,Torstraße,0,9001333,9.95191863516,48.3951680667
900142202,"Eggingen, Rathaus",Rathaus,0,9001422,9.8788375,48.3639183333
900142201,"Eggingen, Rathaus",Rathaus,0,9001422,9.87881299395,48.3637083126
900133301,Torstraße,Torstraße,0,9001333,9.9518685785,48.3952329948
9001070,Ostpreußenweg,Ostpreußenweg,1,,10.0304153141,48.4343540454
9001733,Riedstraße,Riedstraße,1,,10.0099077778,48.3879094444
9001072,Mecklenburgweg,Mecklenburgweg,1,,10.02384347,48.4344775929
9001073,Thüringenweg,Thüringenweg,1,,10.0194129477,48.4332048563
9001074,Haslacher Weg,Haslacher Weg,1,,10.0137956697,48.4301167126
900163101,St.-Gallener-Straße,St.-Gallener-Straße,0,9001631,9.97868152779,48.3500890024
900163102,St.-Gallener-Straße,St.-Gallener-Straße,0,9001631,9.97874253128,48.3497106462
900141304,"Einsingen, Hirsch",Hirsch,0,9001413,9.90016222222,48.3528394444
900141303,"Einsingen, Hirsch",Hirsch,0,9001413,9.90035944444,48.3527802778
900135212,Theodor-Heuss-Platz,Theodor-Heuss-Platz,0,9001352,9.96831622245,48.3947427114
900270801,"Blaustein, Am Blaugarten",Am Blaugarten,0,9002708,9.92909712004,48.4111868091
900270802,"Blaustein, Am Blaugarten",Am Blaugarten,0,9002708,9.92918196273,48.4110516218
900172301,Gartenstraße,Gartenstraße,0,9001723,10.0002252839,48.3924686725
900107212,Mecklenburgweg,Mecklenburgweg,0,9001072,10.02384347,48.4344775929
900107211,Mecklenburgweg,Mecklenburgweg,0,9001072,10.0238636336,48.4344504099
900135211,Theodor-Heuss-Platz,Theodor-Heuss-Platz,0,9001352,9.96844681403,48.3946701012
900171902,Waldeck,Waldeck,0,9001719,10.0096522222,48.3944741667
900125601,Virchowstraße,Virchowstraße,0,9001256,9.94593528899,48.4140397568
900109701,Neutorstraße,Neutorstraße,0,9001097,9.98612558934,48.4028272199
900171901,Waldeck,Waldeck,0,9001719,10.0102514928,48.3942593732
9001672,"Donaustetten, Illerkirchberger Str.",Illerkirchberger Str.,1,,9.93190295138,48.3281559544
9001261,Traminerweg,Traminerweg,1,,9.95702237212,48.411531048
900176501,Hasenweg,Hasenweg,0,9001765,10.0107775,48.3669058333
9001671,"Donaustetten, Wasserturm",Wasserturm,1,,9.93302929149,48.331584895
900102501,Frauenstraße,Frauenstraße,0,9001025,9.99361055556,48.4062038889
900102502,Frauenstraße,Frauenstraße,0,9001025,9.99276500394,48.4067645159
9001631,St.-Gallener-Straße,St.-Gallener-Straße,1,,9.97874253128,48.3497106462
900139102,Oberer Kuhberg,Oberer Kuhberg,0,9001391,9.95189305556,48.3816930556
900139103,Oberer Kuhberg,Oberer Kuhberg,0,9001391,9.9530578653,48.3817956038
900139101,Oberer Kuhberg,Oberer Kuhberg,0,9001391,9.9527920884,48.3819731207
900171302,Augsburger Tor,Augsburger Tor,0,9001713,10.0041002778,48.3982772222
900155401,Firma UPS,Firma UPS,0,9001554,9.92596138889,48.3541091667
9001772,Danziger Straße,Danziger Straße,1,,10.0112925864,48.3707523285
9001771,Oberfeld,Oberfeld,1,,10.0110202778,48.3640155556
900155402,Firma UPS,Firma UPS,0,9001554,9.92631333333,48.3539605556
900117002,Edith-Stein-Ring,Edith-Stein-Ring,0,9001170,9.99286557963,48.4397694243
900138102,Robert-Dick-Weg,Robert-Dick-Weg,0,9001381,9.96729777778,48.3863486111
900120101,Fort Unterer Eselsberg,Fort Unterer Eselsberg,0,9001201,9.96554599056,48.411477226
900120102,Fort Unterer Eselsberg,Fort Unterer Eselsberg,0,9001201,9.96552972222,48.4114205556
900150002,Steinbeisstraße,Steinbeisstraße,0,9001500,9.95332638889,48.36852
900134302,Sportplatz TSG,Sportplatz TSG,0,9001343,9.94463140127,48.3978372965
900177101,Oberfeld,Oberfeld,0,9001771,10.0110202778,48.3640155556
900150001,Steinbeisstraße,Steinbeisstraße,0,9001500,9.95339,48.3685977778
9001724,Memminger Straße,Memminger Straße,1,,10.0037581794,48.3853376057
900193701,"Pfuhl, Platzgasse",Platzgasse,0,9001937,10.0354477778,48.4085977778
900193702,"Pfuhl, Platzgasse",Platzgasse,0,9001937,10.0350533333,48.4081933333
900105401,Donauhalle,Donauhalle,0,9001054,10.0112470497,48.4121363091
900105402,Donauhalle,Donauhalle,0,9001054,10.0112344444,48.4121075
900135902,Haßlerstraße,Haßlerstraße,0,9001359,9.97882166667,48.3904411111
9001602,Alte Siedlung,Alte Siedlung,1,,9.9827620345,48.3537679035
9001601,Oberer Wirt,Oberer Wirt,1,,9.98638805556,48.3565363889
900135901,Haßlerstraße,Haßlerstraße,0,9001359,9.97761777778,48.3896536111
9001608,Ostermahdweg,Ostermahdweg,1,,9.99054416667,48.3645825
900193902,"Pfuhl, Trissionplatz",Trissionplatz,0,9001939,10.0330472559,48.4068330489
900193901,"Pfuhl, Trissionplatz",Trissionplatz,0,9001939,10.032909757,48.4067829948
900129902,Sedanstraße,Sedanstraße,0,9001299,9.96027867496,48.3921446118
900129901,Sedanstraße,Sedanstraße,0,9001299,9.96036082891,48.392180959
9001210,Burgunderweg,Burgunderweg,1,,9.96134518159,48.4087566004
9001218,Lupferbrücke,Lupferbrücke,1,,9.95667798863,48.403585522
900153401,Voithstraße,Voithstraße,0,9001534,9.95602666667,48.3675952778
9001359,Haßlerstraße,Haßlerstraße,1,,9.97806722222,48.3884594444
900124003,Universität Süd,Universität Süd,0,9001240,9.95599422615,48.4218187432
900124002,Universität Süd,Universität Süd,0,9001240,9.95631308411,48.4218900549
900106001,Safranberg,Safranberg,0,9001060,10.0031894444,48.4124702778
900100301,Rosengasse,Rosengasse,0,9001003,9.99682388889,48.4003733333
900100302,Rosengasse,Rosengasse,0,9001003,9.99677833333,48.4007486111
900106002,Safranberg,Safranberg,0,9001060,10.0017741667,48.4129013889
9001351,Blücherstraße,Blücherstraße,1,,9.9736839315,48.3938570147
9001350,Ehinger Tor,Ehinger Tor,1,,9.98100965138,48.3946650882
9001353,Magirusstraße,Magirusstraße,1,,9.96467475962,48.3944497235
9001352,Theodor-Heuss-Platz,Theodor-Heuss-Platz,1,,9.96831622245,48.3947427114
9001355,Beyerstraße (nur Pausenhaltestelle),Beyerstraße (nur Pausenhaltestelle),1,,9.97832916667,48.3929661111
9001354,Blautal-Center,Blautal-Center,1,,9.96053277778,48.4003238889
900132102,Schongauer Weg,Schongauer Weg,0,9001321,9.9485,48.3934194444
9001501,Liststraße,Liststraße,1,,9.94908842283,48.3696734697
900162002,Erenlauh,Erenlauh,0,9001620,9.97106682646,48.3585890566
900162001,Erenlauh,Erenlauh,0,9001620,9.97109916667,48.3584027778
900135403,Blautal-Center,Blautal-Center,0,9001354,9.96053277778,48.4003238889
900135402,Blautal-Center,Blautal-Center,0,9001354,9.9615575,48.4004472222
900135401,Blautal-Center,Blautal-Center,0,9001354,9.96161379207,48.4006477675
9001131,"Mähringen, Ulmer Steige",Ulmer Steige,1,,9.94406694444,48.4353838889
900116001,Hörverlsinger Weg,Hörverlsinger Weg,0,9001160,9.98636166667,48.4260036111
900116002,Hörverlsinger Weg,Hörverlsinger Weg,0,9001160,9.98604527778,48.4254666667
900105101,Staufenring,Staufenring,0,9001051,10.0043627291,48.4035150353
900105102,Staufenring,Staufenring,0,9001051,10.0042083333,48.4034916667
900101112,Justizgebäude,Justizgebäude,0,9001011,9.99283222222,48.4019797222
900170102,Adenauerbrücke,Adenauerbrücke,0,9001701,9.98814888889,48.3884697222
9001504,Maybachstraße,Maybachstraße,1,,9.94627527778,48.3612808333
900129601,Neunkirchenweg,Neunkirchenweg,0,9001296,9.95985153416,48.3864279484
9001506,Benzstraße,Benzstraße,1,,9.94174260472,48.3656715372
900134502,Fünf-Bäume-Weg,Fünf-Bäume-Weg,0,9001345,9.9488075,48.3964088889
9001500,Steinbeisstraße,Steinbeisstraße,1,,9.95332638889,48.36852
900155202,Firma Rheinzink,Firma Rheinzink,0,9001552,9.92544627258,48.3560278679
900155201,Firma Rheinzink,Firma Rheinzink,0,9001552,9.92562916667,48.3561802778
9001503,Heuweg,Heuweg,1,,9.95211722222,48.3648516667
9001258,Sonnenfeld,Sonnenfeld,1,,9.93726861111,48.4141425
900124901,Science Park II,Science Park II,0,9001249,9.9376425,48.4246883333
900124902,Science Park II,Science Park II,0,9001249,9.93680416667,48.4243511111
900174501,Arena,Arena,0,9001745,10.00577,48.38237
900121002,Burgunderweg,Burgunderweg,0,9001210,9.96134518159,48.4087566004
900174502,Arena,Arena,0,9001745,10.0056492694,48.3816857417
900100902,Hafengasse,Hafengasse,0,9001009,9.996296608,48.3986892944
900133901,Am Roten Berg,Am Roten Berg,0,9001339,9.93959916667,48.4010911111
900133902,Am Roten Berg,Am Roten Berg,0,9001339,9.94046444444,48.4008133333
900100901,Hafengasse,Hafengasse,0,9001009,9.99601333333,48.3979872222
900122201,Beringerbrücke,Beringerbrücke,0,9001222,9.96642038821,48.4046630722
900103902,Kienlesberg,Kienlesberg,0,9001039,9.98336777778,48.4058161111
900103901,Kienlesberg,Kienlesberg,0,9001039,9.98334416667,48.4058791667
900122202,Beringerbrücke,Beringerbrücke,0,9001222,9.96633590244,48.4046054226
900108201,Eichberg Nord,Eichberg Nord,0,9001082,10.0076147654,48.4265955256
900108202,Eichberg Nord,Eichberg Nord,0,9001082,10.0070377046,48.4261468646
900136702,Auf der Gölde,Auf der Gölde,0,9001367,9.9668075,48.4004272222
900135301,Magirusstraße,Magirusstraße,0,9001353,9.96387702515,48.3944323771
900135302,Magirusstraße,Magirusstraße,0,9001353,9.96467475962,48.3944497235
900126601,Ehrensteiner Feld,Ehrensteiner Feld,0,9001266,9.94850130143,48.41136293
9001000,ZOB,ZOB,1,,9.98361222222,48.3982872222
9001003,Rosengasse,Rosengasse,1,,9.99677833333,48.4007486111
900126602,Ehrensteiner Feld,Ehrensteiner Feld,0,9001266,9.94783222222,48.4111994444
900271002,"Blaustein, Hofstraße",Hofstraße,0,9002710,9.92247083333,48.4151611111
900105203,Donaustadion,Donaustadion,0,9001052,10.0068729134,48.40505648
900271001,"Blaustein, Hofstraße",Hofstraße,0,9002710,9.92324805556,48.4152358333
9001009,Hafengasse,Hafengasse,1,,9.996296608,48.3986892944
9001008,Hauptbahnhof,Hauptbahnhof,1,,9.98416128745,48.3993656011
900129602,Neunkirchenweg,Neunkirchenweg,0,9001296,9.95987985727,48.3863216682
900143301,"Ermingen, Waldstraße",Waldstraße,0,9001433,9.89777416667,48.3819652778
900143302,"Ermingen, Waldstraße",Waldstraße,0,9001433,9.89740222222,48.3818813889
9001431,"Ermingen, Allewind",Allewind,1,,9.89145972222,48.3764644444
9001432,"Ermingen, Panoramastraße",Panoramastraße,1,,9.89662314096,48.377553572
9001433,"Ermingen, Waldstraße",Waldstraße,1,,9.89740222222,48.3818813889
900104402,Neuer Friedhof,Neuer Friedhof,0,9001044,9.9865325,48.4157891667
900131003,Sonnenstraße,Sonnenstraße,0,9001310,9.95664527778,48.3945102778
900131002,Sonnenstraße,Sonnenstraße,0,9001310,9.95846507487,48.3946647344
900131001,Sonnenstraße,Sonnenstraße,0,9001310,9.95776475111,48.3945859776
900104401,Neuer Friedhof,Neuer Friedhof,0,9001044,9.98678722222,48.4157188889
900154901,Ratiopharm,Ratiopharm,0,9001549,9.93833845323,48.3600745506
900108701,Egertweg,Egertweg,0,9001087,10.0122730556,48.4258608333
900108702,Egertweg,Egertweg,0,9001087,10.0121418662,48.4261117253
900172502,Edisoncenter,Edisoncenter,0,9001725,10.007251754,48.3793174434
900172501,Edisoncenter,Edisoncenter,0,9001725,10.0073578942,48.3794000374
900173101,Steubenstraße,Steubenstraße,0,9001731,10.0075765737,48.3900577639
900173102,Steubenstraße,Steubenstraße,0,9001731,10.0078056154,48.3902008532
900131101,Königstraße,Königstraße,0,9001311,9.96123083333,48.3944605556
900132201,Leonberger Weg,Leonberger Weg,0,9001322,9.949445,48.3918241667
900132202,Leonberger Weg,Leonberger Weg,0,9001322,9.94949850273,48.3918571565
900132203,Leonberger Weg,Leonberger Weg,0,9001322,9.95021856965,48.3918256875
900106101,Albecker Steige,Albecker Steige,0,9001061,10.0038788889,48.4140025
900129702,Sulzbachweg,Sulzbachweg,0,9001297,9.95966484134,48.3889319114
900126502,Veltlinerweg,Veltlinerweg,0,9001265,9.95134768892,48.4097678384
900126501,Veltlinerweg,Veltlinerweg,0,9001265,9.9501774206,48.4098646374
900135202,Theodor-Heuss-Platz,Theodor-Heuss-Platz,0,9001352,9.96831622245,48.3947427114
900170401,Illerbrücke,Illerbrücke,0,9001704,9.98957470698,48.3725564961
900170402,Illerbrücke,Illerbrücke,0,9001704,9.98958527778,48.3727016667
900145101,"Harthausen, Kirche",Kirche,0,9001451,9.91422083333,48.3907552778
9001725,Edisoncenter,Edisoncenter,1,,10.007251754,48.3793174434
900145102,"Harthausen, Kirche",Kirche,0,9001451,9.91417379583,48.3906768206
9001723,Gartenstraße,Gartenstraße,1,,10.0002252839,48.3924686725
900117101,Margarete-Steiff-Weg,Margarete-Steiff-Weg,0,9001171,9.99666970033,48.4417536873
900276102,"Arnegg, Gasthof Blautal",Gasthof Blautal,0,9002761,9.8797309517,48.4154131788
900276101,"Arnegg, Gasthof Blautal",Gasthof Blautal,0,9002761,9.88043490267,48.4154836695
900100004,ZOB,ZOB,0,9001000,9.98385389999,48.3978074504
900190601,"Offenhausen, Roseggerstraße",Roseggerstraße,0,9001906,10.0246449612,48.4017389023
9001311,Königstraße,Königstraße,1,,9.96109037988,48.3945197924
900190602,"Offenhausen, Roseggerstraße",Roseggerstraße,0,9001906,10.023907095,48.4016493257
900110301,Junginger Straße,Junginger Straße,0,9001103,9.97212777778,48.4366013889
900272802,"Herrlingen, Bahnhof",Bahnhof,0,9002728,9.89788886521,48.4183524772
900130003,Söflingen,Söflingen,0,9001300,9.95464601969,48.3952942872
900170003,ZUP,ZUP,0,9001700,10.0036128644,48.3922253103
900107802,Ludwig-Beck-Straße,Ludwig-Beck-Straße,0,9001078,10.0068939333,48.4220850952
9001864,Borsigstraße,Borsigstraße,1,,10.0164722426,48.395777464
900163202,Kemptener Straße,Kemptener Straße,0,9001632,9.97295657222,48.3464496067
9001162,Albstraße,Albstraße,1,,9.98619888889,48.4352952778
900163201,Kemptener Straße,Kemptener Straße,0,9001632,9.97292747015,48.3464936933
900190301,"Offenhausen, Ortsstraße",Ortsstraße,0,9001903,10.0224772837,48.40207331
900190302,"Offenhausen, Ortsstraße",Ortsstraße,0,9001903,10.0225933076,48.4019202086
900125801,Sonnenfeld,Sonnenfeld,0,9001258,9.9375197259,48.4141181897
900167102,"Donaustetten, Wasserturm",Wasserturm,0,9001671,9.93302929149,48.331584895
9001940,"Pfuhl, Winterstraße",Winterstraße,1,,10.0437536111,48.4118383333
9001942,"Pfuhl, Schulzentrum",Schulzentrum,1,,10.0538429019,48.4142277265
9001540,Hans-Lorenser-Straße,Hans-Lorenser-Straße,1,,9.93803916667,48.3486775
900126002,Ruländerweg,Ruländerweg,0,9001260,9.95594820745,48.4083553411
900126001,Ruländerweg,Ruländerweg,0,9001260,9.95599834183,48.4083603573
9001548,Firma Meiller,Firma Meiller,1,,9.9361125,48.3615183333
9001549,Ratiopharm,Ratiopharm,1,,9.93852939873,48.3600745905
9001382,Egginer Weg,Egginer Weg,1,,9.96394722222,48.3854344444
9001383,Gewerbeschulen Königstraße,Gewerbeschulen Königstraße,1,,9.96019934375,48.3846033116
9001380,Saarlandstraße,Saarlandstraße,1,,9.97031722222,48.3879344444
9001381,Robert-Dick-Weg,Robert-Dick-Weg,1,,9.96729777778,48.3863486111
900101012,Theater,Theater,0,9001010,9.98784333333,48.4011683333
900101011,Theater,Theater,0,9001010,9.98798937783,48.4011655841
900136002,Römerplatz,Römerplatz,0,9001360,9.97428388889,48.3902127778
9001260,Ruländerweg,Ruländerweg,1,,9.95594820745,48.4083553411
900136001,Römerplatz,Römerplatz,0,9001360,9.9753175,48.3903736111
900138101,Robert-Dick-Weg,Robert-Dick-Weg,0,9001381,9.96690111111,48.3860513889
9001266,Ehrensteiner Feld,Ehrensteiner Feld,1,,9.94783222222,48.4111994444
900140102,Häberlinweg,Häberlinweg,0,9001401,9.94098546786,48.3731129639
900140101,Häberlinweg,Häberlinweg,0,9001401,9.94107305556,48.3730961111
900107011,Ostpreußenweg,Ostpreußenweg,0,9001070,10.0304153141,48.4343540454
900108102,Eichberg,Eichberg,0,9001081,10.0053641667,48.4228113889
900108101,Eichberg,Eichberg,0,9001081,10.0058977778,48.4234769444
900101111,Justizgebäude,Justizgebäude,0,9001011,9.99294333333,48.4019483333
900116602,Gehrnstraße,Gehrnstraße,0,9001166,9.99238722222,48.4458025
900116601,Gehrnstraße,Gehrnstraße,0,9001166,9.99235354594,48.4458617791
9002702,"Blaustein, Galgenbergstraße",Galgenbergstraße,1,,9.91635638889,48.4146722222
9002701,"Blaustein, Bahnhof/Rathaus",Bahnhof/Rathaus,1,,9.91872377359,48.4153670965
9001046,Wilhelmsburgkaserne,Wilhelmsburgkaserne,1,,9.98381,48.4180494444
900270101,"Blaustein, Bahnhof/Rathaus",Bahnhof/Rathaus,0,9002701,9.91828405822,48.415731024
900270102,"Blaustein, Bahnhof/Rathaus",Bahnhof/Rathaus,0,9002701,9.91872377359,48.4153670965
9002704,"Blaustein, Kalte Herberge",Kalte Herberge,1,,9.90803315608,48.4185365488
9002708,"Blaustein, Am Blaugarten",Am Blaugarten,1,,9.92918196273,48.4110516218
9001049,Congress Centrum,Congress Centrum,1,,10.0037127778,48.4008075
9001048,Örlinger Straße,Örlinger Straße,1,,10.0016213889,48.4087463889
900138302,Gewerbeschulen Königstraße,Gewerbeschulen Königstraße,0,9001383,9.96019934375,48.3846033116
900170008,ZUP,ZUP,0,9001700,10.0028572149,48.392008323
900153201,Siemensstraße,Siemensstraße,0,9001532,9.95497927792,48.3621738382
9001968,"Burlafingen, Schule",Schule,1,,10.0697605959,48.4120414445
900153202,Siemensstraße,Siemensstraße,0,9001532,9.95496038139,48.3621457678
9001166,Gehrnstraße,Gehrnstraße,1,,9.99238722222,48.4458025
9001167,Donau-Iller-Werkstätten,Donau-Iller-Werkstätten,1,,9.98591111111,48.4469527778
9001164,Schwarzenbergstraße,Schwarzenbergstraße,1,,9.98581861111,48.44872
9001165,Fichtenstraße,Fichtenstraße,1,,9.99082036879,48.4494479065
900167101,"Donaustetten, Wasserturm",Wasserturm,0,9001671,9.93317731694,48.3317039809
900132501,Maienweg Nord,Maienweg Nord,0,9001325,9.94570666667,48.3948177778
9001160,Hörverlsinger Weg,Hörverlsinger Weg,1,,9.98604527778,48.4254666667
9001161,Franzenhauserweg,Franzenhauserweg,1,,9.98558283039,48.4293234864
9001507,Boschstraße,Boschstraße,1,,9.95438944444,48.3711908333
900173401,Bradleystraße,Bradleystraße,0,9001734,10.0114165466,48.3855965901
900173402,Bradleystraße,Bradleystraße,0,9001734,10.0117130491,48.3857227271
9001502,Daimlerstraße,Daimlerstraße,1,,9.9527225,48.3664561111
900135111,Blücherstraße,Blücherstraße,0,9001351,9.97298422726,48.393850575
900105801,Ostplatz,Ostplatz,0,9001058,10.0011699447,48.4059940604
900105802,Ostplatz,Ostplatz,0,9001058,10.0018527778,48.4057136111
900135112,Blücherstraße,Blücherstraße,0,9001351,9.9736839315,48.3938570147
900186403,Borsigstraße,Borsigstraße,0,9001864,10.0165302724,48.3957230287
900186404,Borsigstraße,Borsigstraße,0,9001864,10.0164722426,48.395777464
900107202,Mecklenburgweg,Mecklenburgweg,0,9001072,10.0243584461,48.4345034025
9001744,Washingtonallee,Washingtonallee,1,,10.0111294444,48.3798902778
900100102,Steinerne Brücke,Steinerne Brücke,0,9001001,9.98858400295,48.3971605101
900194002,"Pfuhl, Winterstraße",Winterstraße,0,9001940,10.0437536111,48.4118383333
900142101,"Eggingen, Ringinger Straße",Ringinger Straße,0,9001421,9.87963305556,48.3610772222
900142102,"Eggingen, Ringinger Straße",Ringinger Straße,0,9001421,9.87965361111,48.3612286111
9001768,Hafnerweg,Hafnerweg,1,,10.0181247222,48.3661166667
9001769,Reichenberger Straße,Reichenberger Straße,1,,10.01521,48.3689986111
9001765,Hasenweg,Hasenweg,1,,10.0107775,48.3669058333
9001766,Katholische kirche,Katholische kirche,1,,10.0136552778,48.3672363889
9001767,Allgäuer Straße,Allgäuer Straße,1,,10.0130763259,48.3638942064
9001727,Wiley Süd,Wiley Süd,1,,10.0105616667,48.3769363889
900176901,Reichenberger Straße,Reichenberger Straße,0,9001769,10.0148336206,48.369632828
900160203,Alte Siedlung,Alte Siedlung,0,9001602,9.9827620345,48.3537679035
900160202,Alte Siedlung,Alte Siedlung,0,9001602,9.98329275095,48.3540138016
900160201,Alte Siedlung,Alte Siedlung,0,9001602,9.98284333333,48.3538772222
900194202,"Pfuhl, Schulzentrum",Schulzentrum,0,9001942,10.0538429019,48.4142277265
900116302,Rathaus Jungingen,Rathaus Jungingen,0,9001163,9.98679111111,48.4428138889
900104902,Congress Centrum,Congress Centrum,0,9001049,10.0037127778,48.4008075
900104901,Congress Centrum,Congress Centrum,0,9001049,10.0034413889,48.4009261111
900116301,Rathaus Jungingen,Rathaus Jungingen,0,9001163,9.98657416667,48.4428952778
900125701,Söflinger Weinberge,Söflinger Weinberge,0,9001257,9.94197830112,48.4123193013
900165102,"Gögglingen, Zollbrücke",Zollbrücke,0,9001651,9.94103278926,48.3426596659
900165101,"Gögglingen, Zollbrücke",Zollbrücke,0,9001651,9.94167911152,48.3431526066
900154001,Hans-Lorenser-Straße,Hans-Lorenser-Straße,0,9001540,9.93803916667,48.3486775
900176601,Katholische kirche,Katholische kirche,0,9001766,10.0136552778,48.3672363889
9001903,"Offenhausen, Ortsstraße",Ortsstraße,1,,10.0225933076,48.4019202086
9001904,"Offenhausen, Grundweg",Grundweg,1,,10.0233689972,48.4035933224
900105002,Willy-Brandt-Platz,Willy-Brandt-Platz,0,9001050,10.000326512,48.4025973183
9001906,"Offenhausen, Roseggerstraße",Roseggerstraße,1,,10.023907095,48.4016493257
900139002,Kuhberg Schulzentrum,Kuhberg Schulzentrum,0,9001390,9.95639698932,48.3835689334
900139001,Kuhberg Schulzentrum,Kuhberg Schulzentrum,0,9001390,9.95454666667,48.3834022222
900105003,Willy-Brandt-Platz,Willy-Brandt-Platz,0,9001050,10.0009262683,48.40242606
900132901,Oberer Roter Berg,Oberer Roter Berg,0,9001329,9.93533703913,48.401416273
9001346,Franz-Wiedemeier-Straße,Franz-Wiedemeier-Straße,1,,9.93682218976,48.3989288398
900159101,Am Sandhaken,Am Sandhaken,0,9001591,9.96127027778,48.3645494444
9001345,Fünf-Bäume-Weg,Fünf-Bäume-Weg,1,,9.9488075,48.3964088889
9001342,Clarissenstraße,Clarissenstraße,1,,9.95335416667,48.3988663889
9001343,Sportplatz TSG,Sportplatz TSG,1,,9.94463140127,48.3978372965
9001340,Riedwiesenweg,Riedwiesenweg,1,,9.94547761087,48.4018002736
9001341,St.-Jakob-Straße,St.-Jakob-Straße,1,,9.95007625206,48.4004850973
900120005,Eselsberg Hasenkopf,Eselsberg Hasenkopf,0,9001200,9.96284301666,48.4145314156
900120004,Eselsberg Hasenkopf,Eselsberg Hasenkopf,0,9001200,9.96260638889,48.4143275
900196102,"Burlafingen, Bahnhof",Bahnhof,0,9001961,10.0691028372,48.4107661706
900120001,Eselsberg Hasenkopf,Eselsberg Hasenkopf,0,9001200,9.9631871052,48.414611486
9001220,Bahnhof Söflingen,Bahnhof Söflingen,1,,9.95906777778,48.4030652778
900120002,Eselsberg Hasenkopf,Eselsberg Hasenkopf,0,9001200,9.96355122249,48.414106157
900163302,Saulgauer Straße,Saulgauer Straße,0,9001633,9.96829681316,48.3483189455
900163301,Saulgauer Straße,Saulgauer Straße,0,9001633,9.96843515115,48.348256985
900163502,Reutlinger Straße,Reutlinger Straße,0,9001635,9.97003861111,48.3544880556
900116501,Fichtenstraße,Fichtenstraße,0,9001165,9.99107971546,48.4493588555
900193301,"Pfuhl, Leipheimer Straße",Leipheimer Straße,0,9001933,10.0468780253,48.4072909187
900134001,Riedwiesenweg,Riedwiesenweg,0,9001340,9.94514027778,48.4018511111
900134002,Riedwiesenweg,Riedwiesenweg,0,9001340,9.94547761087,48.4018002736
900138301,Gewerbeschulen Königstraße,Gewerbeschulen Königstraße,0,9001383,9.96168472222,48.3848927778
900193601,"Pfuhl, Altes Rathaus",Altes Rathaus,0,9001936,10.0397775,48.4102293721
900160501,Kapelle,Kapelle,0,9001605,9.98341803787,48.3604833168
900160502,Kapelle,Kapelle,0,9001605,9.98425383069,48.3605566074
900193602,"Pfuhl, Altes Rathaus",Altes Rathaus,0,9001936,10.0398470447,48.4102186556
900193802,"Pfuhl, Stauffenbergstraße",Stauffenbergstraße,0,9001938,10.0306792512,48.4056831876
900193801,"Pfuhl, Stauffenbergstraße",Stauffenbergstraße,0,9001938,10.0303686111,48.4056091667
900134901,Jägerstraße,Jägerstraße,0,9001349,9.95564888889,48.4001677778
900150101,Liststraße,Liststraße,0,9001501,9.94912912415,48.3696934041
900100802,Hauptbahnhof,Hauptbahnhof,0,9001008,9.98416128745,48.3993656011
900100801,Hauptbahnhof,Hauptbahnhof,0,9001008,9.98422768554,48.3993311097
9001081,Eichberg,Eichberg,1,,10.0053641667,48.4228113889
9001080,Eugen-Bolz-Straße,Eugen-Bolz-Straße,1,,10.0173578287,48.4200736483
9001083,Alfred-Delp-Weg,Alfred-Delp-Weg,1,,10.0132138889,48.423425
9001082,Eichberg Nord,Eichberg Nord,1,,10.0070377046,48.4261468646
900105112,Staufenring,Staufenring,0,9001051,10.0042073,48.403492429
9001087,Egertweg,Egertweg,1,,10.012325834,48.4256026171
900105111,Staufenring,Staufenring,0,9001051,10.0043627291,48.4035150353
9001539,Ernst-Abbe-Straße,Ernst-Abbe-Straße,1,,9.92857846657,48.3528266438
900134902,Jägerstraße,Jägerstraße,0,9001349,9.9555025,48.4001313889
900177202,Danziger Straße,Danziger Straße,0,9001772,10.0112925864,48.3707523285
900177201,Danziger Straße,Danziger Straße,0,9001772,10.0112894444,48.370815
9001532,Siemensstraße,Siemensstraße,1,,9.95496038139,48.3621457678
900100201,Rathaus Ulm,Rathaus Ulm,0,9001002,9.99286568236,48.3974951256
9001534,Voithstraße,Voithstraße,1,,9.95602666667,48.3675952778
900100202,Rathaus Ulm,Rathaus Ulm,0,9001002,9.99413044726,48.3976179276
900160801,Ostermahdweg,Ostermahdweg,0,9001608,9.99091222222,48.3654222222
900160802,Ostermahdweg,Ostermahdweg,0,9001608,9.99054416667,48.3645825
900174302,Neue Hochschule,Neue Hochschule,0,9001743,10.0091933333,48.3795605556
900174301,Neue Hochschule,Neue Hochschule,0,9001743,10.00869,48.3795288889
900133202,Maienweg,Maienweg,0,9001332,9.94866416667,48.3896572222
900141403,"Einsingen, Kirche",Kirche,0,9001414,9.89513055556,48.3539038889
900141404,"Einsingen, Kirche",Kirche,0,9001414,9.89498611111,48.3543452778
900133201,Maienweg,Maienweg,0,9001332,9.94861055556,48.3897572222
900109998,SWU Betriebshof,SWU Betriebshof,0,9001099,9.9677802616,48.3963827982
900109999,SWU Betriebshof,SWU Betriebshof,0,9001099,9.96826583333,48.3963811111
900150604,Benzstraße,Benzstraße,0,9001506,9.94174260472,48.3656715372
9001265,Veltlinerweg,Veltlinerweg,1,,9.95134768892,48.4097678384
900134501,Fünf-Bäume-Weg,Fünf-Bäume-Weg,0,9001345,9.94859952698,48.3965491568
900150601,Benzstraße,Benzstraße,0,9001506,9.94248593467,48.3664752158
900150602,Benzstraße,Benzstraße,0,9001506,9.9425324138,48.3664318766
900150603,Benzstraße,Benzstraße,0,9001506,9.9417950013,48.3656817894
900116101,Franzenhauserweg,Franzenhauserweg,0,9001161,9.98545388889,48.42873
9001404,Erbacher Straße,Erbacher Straße,1,,9.93984951928,48.3670106241
900116102,Franzenhauserweg,Franzenhauserweg,0,9001161,9.98558283039,48.4293234864
9001401,Häberlinweg,Häberlinweg,1,,9.94098546786,48.3731129639
9001400,Rathausstraße,Rathausstraße,1,,9.93589861111,48.3718797222
9001403,Eisenbahnstraße,Eisenbahnstraße,1,,9.93708611111,48.3701763889
9001015,Herdbrücke,Herdbrücke,1,,9.99576366159,48.3964447058
9001012,Keplerstraße,Keplerstraße,1,,9.992616374,48.4055853947
900187105,Lessingstraße,Lessingstraße,0,9001871,10.0256,48.3969
9001010,Theater,Theater,1,,9.98784333333,48.4011683333
9001011,Justizgebäude,Justizgebäude,1,,9.99283222222,48.4019797222
900129701,Sulzbachweg,Sulzbachweg,0,9001297,9.95970926534,48.3890117125
9001001,Steinerne Brücke,Steinerne Brücke,1,,9.98858400295,48.3971605101
900187104,Lessingstraße,Lessingstraße,0,9001871,10.0246694444,48.3967305556
900170004,ZUP,ZUP,0,9001700,10.0029812307,48.3918779665
900126102,Traminerweg,Traminerweg,0,9001261,9.95702237212,48.411531048
900121802,Lupferbrücke,Lupferbrücke,0,9001218,9.95667798863,48.403585522
900121801,Lupferbrücke,Lupferbrücke,0,9001218,9.95687222222,48.4035777778
9001002,Rathaus Ulm,Rathaus Ulm,1,,9.99413044726,48.3976179276
900131011,Sonnenstraße,Sonnenstraße,0,9001310,9.95776475111,48.3945859776
900131012,Sonnenstraße,Sonnenstraße,0,9001310,9.95846507487,48.3946647344
900124801,Hochschule Eselsberg,Hochschule Eselsberg,0,9001248,9.93782611111,48.4187752778
900105202,Donaustadion,Donaustadion,0,9001052,10.0074894444,48.4049786111
900130011,Söflingen,Söflingen,0,9001300,9.95500564155,48.3948493386
900124802,Hochschule Eselsberg,Hochschule Eselsberg,0,9001248,9.93825861111,48.4187294444
900125402,Lise-Meitner-Straße,Lise-Meitner-Straße,0,9001254,9.93525472222,48.4187977778
900125401,Lise-Meitner-Straße,Lise-Meitner-Straße,0,9001254,9.93493578946,48.4187576869
900172702,Wiley Süd,Wiley Süd,0,9001727,10.0105616667,48.3769363889
9001163,Rathaus Jungingen,Rathaus Jungingen,1,,9.98679111111,48.4428138889
900105201,Donaustadion,Donaustadion,0,9001052,10.0076333333,48.4049875
9001249,Science Park II,Science Park II,1,,9.93680416667,48.4243511111
9001605,Kapelle,Kapelle,1,,9.98425383069,48.3605566074
900107411,Haslacher Weg,Haslacher Weg,0,9001074,10.0139492571,48.4302437164
900134602,Franz-Wiedemeier-Straße,Franz-Wiedemeier-Straße,0,9001346,9.93682218976,48.3989288398
900135203,Theodor-Heuss-Platz,Theodor-Heuss-Platz,0,9001352,9.96860765348,48.3949049835
900134601,Franz-Wiedemeier-Straße,Franz-Wiedemeier-Straße,0,9001346,9.93661111111,48.3989925
900116202,Albstraße,Albstraße,0,9001162,9.98619888889,48.4352952778
900116201,Albstraße,Albstraße,0,9001162,9.98589666667,48.4344702778
900105302,Wohnpark Friedrichsau,Wohnpark Friedrichsau,0,9001053,10.0089784204,48.4084236123
900105301,Wohnpark Friedrichsau,Wohnpark Friedrichsau,0,9001053,10.0089967551,48.4085071475
9001710,Rathaus Neu-Ulm,Rathaus Neu-Ulm,1,,10.000725,48.3950422222
9001713,Augsburger Tor,Augsburger Tor,1,,10.0041002778,48.3982772222
900138202,Egginer Weg,Egginer Weg,0,9001382,9.96394722222,48.3854344444
9001714,Kasernstraße,Kasernstraße,1,,10.0070268319,48.396610748
900107201,Mecklenburgweg,Mecklenburgweg,0,9001072,10.0247669471,48.4345082117
900138201,Egginer Weg,Egginer Weg,0,9001382,9.96435944444,48.3853802778
9001719,Waldeck,Waldeck,1,,10.0096522222,48.3944741667
9001651,"Gögglingen, Zollbrücke",Zollbrücke,1,,9.94103278926,48.3426596659
9001652,"Gögglingen, Hoher Berg",Hoher Berg,1,,9.93918539538,48.3385041572
9001653,"Gögglingen, Riedlenstraße",Riedlenstraße,1,,9.936715,48.33487
900159401,Firma Seeberger,Firma Seeberger,0,9001594,9.95065385988,48.3585383886
900140402,Erbacher Straße,Erbacher Straße,0,9001404,9.93984951928,48.3670106241
900140401,Erbacher Straße,Erbacher Straße,0,9001404,9.93983388889,48.3671238889
900159402,Firma Seeberger,Firma Seeberger,0,9001594,9.95179305556,48.3592152778
900196202,"Burlafingen, Dorfplatz",Dorfplatz,0,9001962,10.0681,48.4152633333
900170007,ZUP,ZUP,0,9001700,10.0033645183,48.3922840909
9001301,Ottiliengasse,Ottiliengasse,1,,9.95551138889,48.3966844444
900176902,Reichenberger Straße,Reichenberger Straße,0,9001769,10.01521,48.3689986111
900131111,Königstraße,Königstraße,0,9001311,9.96123083333,48.3944605556
9001300,Söflingen,Söflingen,1,,9.95500564155,48.3948493386
900131112,Königstraße,Königstraße,0,9001311,9.96109037988,48.3945197924
900132301,Gleißelstetten,Gleißelstetten,0,9001323,9.94797472222,48.3880691667
900124501,Kliniken Wissenschaftsstadt,Kliniken Wissenschaftsstadt,0,9001245,9.94950638889,48.4234533333
900124502,Kliniken Wissenschaftsstadt,Kliniken Wissenschaftsstadt,0,9001245,9.95003472222,48.4235488889
900132302,Gleißelstetten,Gleißelstetten,0,9001323,9.94709583333,48.3877536111
900135201,Theodor-Heuss-Platz,Theodor-Heuss-Platz,0,9001352,9.96844681403,48.3946701012
900113101,"Mähringen, Ulmer Steige",Ulmer Steige,0,9001131,9.94406694444,48.4353838889
9001871,Lessingstraße,Lessingstraße,1,,10.0256,48.3969
900167204,"Donaustetten, Illerkirchberger Str.",Illerkirchberger Str.,0,9001672,9.93190295138,48.3281559544
900170501,Amtsgericht,Amtsgericht,0,9001705,9.99372994554,48.3913664017
900167203,"Donaustetten, Illerkirchberger Str.",Illerkirchberger Str.,0,9001672,9.93195332529,48.3281099032
9001170,Edith-Stein-Ring,Edith-Stein-Ring,1,,9.99286557963,48.4397694243
900103101,Frauensteige,Frauensteige,0,9001031,9.99039027003,48.409656455
900123202,Lehrer Tal,Lehrer Tal,0,9001232,9.97379099135,48.4064681029
900123201,Lehrer Tal,Lehrer Tal,0,9001232,9.97678081344,48.4066053146
900105012,Willy-Brandt-Platz,Willy-Brandt-Platz,0,9001050,10.000326512,48.4025973183
900105011,Willy-Brandt-Platz,Willy-Brandt-Platz,0,9001050,10.0017094441,48.4027036897
900116702,Donau-Iller-Werkstätten,Donau-Iller-Werkstätten,0,9001167,9.98591111111,48.4469527778
900116701,Donau-Iller-Werkstätten,Donau-Iller-Werkstätten,0,9001167,9.98461527778,48.4473261111
9001006,Gänsturm,Gänsturm,1,,10.0009855556,48.3987147222
9001574,IVECO,IVECO,1,,9.92920539234,48.35964537
900101002,Theater,Theater,0,9001010,9.98784333333,48.4011683333
900101003,Theater,Theater,0,9001010,9.98717151987,48.4016255087
900101004,Theater,Theater,0,9001010,9.98706333333,48.4014022222
900143102,"Ermingen, Allewind",Allewind,0,9001431,9.89145972222,48.3764644444
900143101,"Ermingen, Allewind",Allewind,0,9001431,9.8937479127,48.3766009705
900108712,Egertweg,Egertweg,0,9001087,10.012325834,48.4256026171
900108711,Egertweg,Egertweg,0,9001087,10.0124314596,48.4258340463
900107902,Eichenplatz,Eichenplatz,0,9001079,10.0032022222,48.4191294444
900107901,Eichenplatz,Eichenplatz,0,9001079,10.0041419444,48.4201566667
900190402,"Offenhausen, Grundweg",Grundweg,0,9001904,10.0233689972,48.4035933224
900190401,"Offenhausen, Grundweg",Grundweg,0,9001904,10.0228328547,48.4035835209
900174401,Washingtonallee,Washingtonallee,0,9001744,10.0111294444,48.3798902778
900154902,Ratiopharm,Ratiopharm,0,9001549,9.93852939873,48.3600745905
9001052,Donaustadion,Donaustadion,1,,10.006926029,48.4051008226
9001053,Wohnpark Friedrichsau,Wohnpark Friedrichsau,1,,10.0089784204,48.4084236123
9001050,Willy-Brandt-Platz,Willy-Brandt-Platz,1,,10.000326512,48.4025973183
9001051,Staufenring,Staufenring,1,,10.0042073,48.403492429
900105901,Steinhövelstraße,Steinhövelstraße,0,9001059,10.0051766667,48.4110986111
9001054,Donauhalle,Donauhalle,1,,10.0112344444,48.4121075
900105902,Steinhövelstraße,Steinhövelstraße,0,9001059,10.0027597222,48.4096161111
9001058,Ostplatz,Ostplatz,1,,10.0018527778,48.4057136111
9001059,Steinhövelstraße,Steinhövelstraße,1,,10.0027597222,48.4096161111
900116401,Schwarzenbergstraße,Schwarzenbergstraße,0,9001164,9.98693638889,48.4488636111
900101501,Herdbrücke,Herdbrücke,0,9001015,9.99587202863,48.3965206673
900135011,Ehinger Tor,Ehinger Tor,0,9001350,9.98108048888,48.3946892647
900196802,"Burlafingen, Schule",Schule,0,9001968,10.0697605959,48.4120414445
900135012,Ehinger Tor,Ehinger Tor,0,9001350,9.98100965138,48.3946650882
900140002,Rathausstraße,Rathausstraße,0,9001400,9.93589861111,48.3718797222
900140001,Rathausstraße,Rathausstraße,0,9001400,9.93642974077,48.3719114166
900170502,Amtsgericht,Amtsgericht,0,9001705,9.99491941102,48.3920265606
9001171,Margarete-Steiff-Weg,Margarete-Steiff-Weg,1,,9.9963755883,48.4413734648
900122002,Bahnhof Söflingen,Bahnhof Söflingen,0,9001220,9.95906777778,48.4030652778
900122001,Bahnhof Söflingen,Bahnhof Söflingen,0,9001220,9.95861027778,48.4031027778
900108002,Eugen-Bolz-Straße,Eugen-Bolz-Straße,0,9001080,10.018511982,48.4211716914
900108001,Eugen-Bolz-Straße,Eugen-Bolz-Straße,0,9001080,10.0178351523,48.4205068601
900135102,Blücherstraße,Blücherstraße,0,9001351,9.9736839315,48.3938570147
900135101,Blücherstraße,Blücherstraße,0,9001351,9.97298422726,48.393850575
900160101,Oberer Wirt,Oberer Wirt,0,9001601,9.98546972222,48.3558266667
900160102,Oberer Wirt,Oberer Wirt,0,9001601,9.98638805556,48.3565363889
900110101,Mähringer Straße,Mähringer Straße,0,9001101,9.96734722222,48.432175
900116502,Fichtenstraße,Fichtenstraße,0,9001165,9.99082036879,48.4494479065
900125702,Söflinger Weinberge,Söflinger Weinberge,0,9001257,9.94200555123,48.4122282331
900104603,Wilhelmsburgkaserne,Wilhelmsburgkaserne,0,9001046,9.98381,48.4180494444
9001025,Frauenstraße,Frauenstraße,1,,9.99276500394,48.4067645159
9001020,Karlstraße,Karlstraße,1,,9.98775101227,48.4043652852
9001240,Universität Süd,Universität Süd,1,,9.95599422615,48.4218187432
900163401,Tannenplatz Zentrum,Tannenplatz Zentrum,0,9001634,9.97305177338,48.3510214474
900163402,Tannenplatz Zentrum,Tannenplatz Zentrum,0,9001634,9.9729123332,48.3514827219
900124602,Universität West,Universität West,0,9001246,9.94733972222,48.4214508333
900170101,Adenauerbrücke,Adenauerbrücke,0,9001701,9.98855388889,48.3887511111
900170103,Adenauerbrücke,Adenauerbrücke,0,9001701,9.98958583333,48.3885097222
9001594,Firma Seeberger,Firma Seeberger,1,,9.95179305556,48.3592152778
900124601,Universität West,Universität West,0,9001246,9.94696429044,48.4213560144
9001591,Am Sandhaken,Am Sandhaken,1,,9.96127027778,48.3645494444
9001590,Kastbrücke,Kastbrücke,1,,9.96269251148,48.3617774966
9001451,"Harthausen, Kirche",Kirche,1,,9.91417379583,48.3906768206
900173302,Riedstraße,Riedstraße,0,9001733,10.0099077778,48.3879094444
900173301,Riedstraße,Riedstraße,0,9001733,10.0102282291,48.3879694159
900132101,Schongauer Weg,Schongauer Weg,0,9001321,9.94841222222,48.3934766667
900102001,Karlstraße,Karlstraße,0,9001020,9.98758580726,48.404228829
900108312,Alfred-Delp-Weg,Alfred-Delp-Weg,0,9001083,10.0132138889,48.423425
900108311,Alfred-Delp-Weg,Alfred-Delp-Weg,0,9001083,10.0131539729,48.4234821276
900102002,Karlstraße,Karlstraße,0,9001020,9.98775101227,48.4043652852
900136601,Beim B'scheid,Beim B'scheid,0,9001366,9.97391066386,48.4018145845
900136602,Beim B'scheid,Beim B'scheid,0,9001366,9.97413395406,48.4017151758
900107301,Thüringenweg,Thüringenweg,0,9001073,10.0207188352,48.433487946
900107302,Thüringenweg,Thüringenweg,0,9001073,10.0200066241,48.4333194643
9001621,Fischerhauser Weg,Fischerhauser Weg,1,,9.9764650735,48.3605534532
9001620,Erenlauh,Erenlauh,1,,9.97106682646,48.3585890566
9001939,"Pfuhl, Trissionplatz",Trissionplatz,1,,10.0330472559,48.4068330489
9001938,"Pfuhl, Stauffenbergstraße",Stauffenbergstraße,1,,10.0306792512,48.4056831876
900100101,Steinerne Brücke,Steinerne Brücke,0,9001001,9.98820111111,48.3971741667
9001934,"Pfuhl, Kirchstraße",Kirchstraße,1,,10.0422013889,48.4078952778
9001937,"Pfuhl, Platzgasse",Platzgasse,1,,10.0350533333,48.4081933333
9001936,"Pfuhl, Altes Rathaus",Altes Rathaus,1,,10.0398470447,48.4102186556
9001933,"Pfuhl, Leipheimer Straße",Leipheimer Straße,1,,10.0468780253,48.4072909187
900173602,Wiley Club,Wiley Club,0,9001736,10.0077774432,48.3809226844
900173601,Wiley Club,Wiley Club,0,9001736,10.0077385505,48.3812933755
9001333,Torstraße,Torstraße,1,,9.95191863516,48.3951680667
9001332,Maienweg,Maienweg,1,,9.94866416667,48.3896572222
9001331,Auf der Laue,Auf der Laue,1,,9.94884179721,48.3950423002
900133101,Auf der Laue,Auf der Laue,0,9001331,9.94815815269,48.394919932
900133102,Auf der Laue,Auf der Laue,0,9001331,9.94884179721,48.3950423002
9001232,Lehrer Tal,Lehrer Tal,1,,9.97379099135,48.4064681029
9001339,Am Roten Berg,Am Roten Berg,1,,9.94046444444,48.4008133333
9001246,Universität West,Universität West,1,,9.94733972222,48.4214508333
900165204,"Gögglingen, Hoher Berg",Hoher Berg,0,9001652,9.93918539538,48.3385041572
900107412,Haslacher Weg,Haslacher Weg,0,9001074,10.0137956697,48.4301167126
900165203,"Gögglingen, Hoher Berg",Hoher Berg,0,9001652,9.93915034132,48.3387033712
900176701,Allgäuer Straße,Allgäuer Straße,0,9001767,10.0136081164,48.3639008467
900176702,Allgäuer Straße,Allgäuer Straße,0,9001767,10.0130763259,48.3638942064
900101001,Theater,Theater,0,9001010,9.98798937783,48.4011655841
900100601,Gänsturm,Gänsturm,0,9001006,10.0010308333,48.3988852778
900100602,Gänsturm,Gänsturm,0,9001006,10.0009855556,48.3987147222
900103002,Kliniken Michelsberg,Kliniken Michelsberg,0,9001030,9.99227080756,48.4112798567
900159001,Kastbrücke,Kastbrücke,0,9001590,9.96287966771,48.3619661222
900159002,Kastbrücke,Kastbrücke,0,9001590,9.96269251148,48.3617774966
9001528,Gasthof Donautal,Gasthof Donautal,1,,9.95528008464,48.375096512
900103001,Kliniken Michelsberg,Kliniken Michelsberg,0,9001030,9.99214667144,48.4113492858
900117301,Auf dem Hart,Auf dem Hart,0,9001173,9.98678250189,48.4389486461
900117302,Auf dem Hart,Auf dem Hart,0,9001173,9.98758034357,48.4392170356
9001248,Hochschule Eselsberg,Hochschule Eselsberg,1,,9.93825861111,48.4187294444
9001247,Manfred-Börner-Straße,Manfred-Börner-Straße,1,,9.94318055556,48.4199694444
900173901,Donauklinik,Donauklinik,0,9001739,9.99348796068,48.3932697959
9001245,Kliniken Wissenschaftsstadt,Kliniken Wissenschaftsstadt,1,,9.95003472222,48.4235488889
9001244,Staudingerstraße,Staudingerstraße,1,,9.95263466339,48.424373648
9001241,Botanischer Garten,Botanischer Garten,1,,9.95681694444,48.4247744444
900158601,DEUTZ AG,DEUTZ AG,0,9001586,9.93361926937,48.3616025705
900150301,Heuweg,Heuweg,0,9001503,9.95201027778,48.3645816667
900141204,"Einsingen, Ensostraße",Ensostraße,0,9001412,9.90539861111,48.3525736111
900141203,"Einsingen, Ensostraße",Ensostraße,0,9001412,9.90596222222,48.3525047222
900158602,DEUTZ AG,DEUTZ AG,0,9001586,9.93283333333,48.3616647222
900134101,St.-Jakob-Straße,St.-Jakob-Straße,0,9001341,9.94929861111,48.4008497222
900134102,St.-Jakob-Straße,St.-Jakob-Straße,0,9001341,9.95007625206,48.4004850973
900150302,Heuweg,Heuweg,0,9001503,9.95211722222,48.3648516667
900157402,IVECO,IVECO,0,9001574,9.92920539234,48.35964537
900157401,IVECO,IVECO,0,9001574,9.92957083333,48.3598280556
900152801,Gasthof Donautal,Gasthof Donautal,0,9001528,9.95576217269,48.3750625901
900152802,Gasthof Donautal,Gasthof Donautal,0,9001528,9.95528008464,48.375096512
900171002,Rathaus Neu-Ulm,Rathaus Neu-Ulm,0,9001710,10.000725,48.3950422222
900171001,Rathaus Neu-Ulm,Rathaus Neu-Ulm,0,9001710,10.00067917,48.3951289216
900125502,Heilmeyersteige,Heilmeyersteige,0,9001255,9.95074722809,48.4135118652
9002763,"Arnegg, Bildstöckle",Bildstöckle,1,,9.8743,48.4133777778
900150201,Daimlerstraße,Daimlerstraße,0,9001502,9.95298194444,48.3671175
900150202,Daimlerstraße,Daimlerstraße,0,9001502,9.9527225,48.3664561111
9001729,Meininger Allee,Meininger Allee,1,,10.0084520807,48.3948874315
9001412,"Einsingen, Ensostraße",Ensostraße,1,,9.90539861111,48.3525736111
9001413,"Einsingen, Hirsch",Hirsch,1,,9.90016222222,48.3528394444
9001414,"Einsingen, Kirche",Kirche,1,,9.89498611111,48.3543452778
9002761,"Arnegg, Gasthof Blautal",Gasthof Blautal,1,,9.8797309517,48.4154131788
9001061,Albecker Steige,Albecker Steige,1,,10.0038788889,48.4140025
9001060,Safranberg,Safranberg,1,,10.0017741667,48.4129013889
900120202,Multscherschule,Multscherschule,0,9001202,9.96772277778,48.4085138889
900120201,Multscherschule,Multscherschule,0,9001202,9.96774222222,48.4086658333
900100502,Haus der Begegnung,Haus der Begegnung,0,9001005,9.99824719008,48.3976644802
900155501,Firma Wieland,Firma Wieland,0,9001555,9.94512388889,48.3561608333
900155502,Firma Wieland,Firma Wieland,0,9001555,9.94423055556,48.3565972222
900100501,Haus der Begegnung,Haus der Begegnung,0,9001005,9.99810779209,48.39774424
9001225,Bleicher Hag,Bleicher Hag,1,,9.97187972222,48.4060236111
900104801,Örlinger Straße,Örlinger Straße,0,9001048,10.0016213889,48.4087463889
900100811,Hauptbahnhof,Hauptbahnhof,0,9001008,9.98422768554,48.3993311097
900100812,Hauptbahnhof,Hauptbahnhof,0,9001008,9.98416128745,48.3993656011
900130001,Söflingen,Söflingen,0,9001300,9.95500564155,48.3948493386
900130002,Söflingen,Söflingen,0,9001300,9.95512533575,48.3949750652
900107001,Ostpreußenweg,Ostpreußenweg,0,9001070,10.030616941,48.4341552953
900125802,Sonnenfeld,Sonnenfeld,0,9001258,9.93726861111,48.4141425
9001297,Sulzbachweg,Sulzbachweg,1,,9.95966484134,48.3889319114
900134202,Clarissenstraße,Clarissenstraße,0,9001342,9.95335416667,48.3988663889
900105311,Wohnpark Friedrichsau,Wohnpark Friedrichsau,0,9001053,10.0089967551,48.4085071475
900105312,Wohnpark Friedrichsau,Wohnpark Friedrichsau,0,9001053,10.0089784204,48.4084236123
900134201,Clarissenstraße,Clarissenstraße,0,9001342,9.9532925,48.3989511111
900150701,Boschstraße,Boschstraße,0,9001507,9.95389611111,48.3701791667
900193401,"Pfuhl, Kirchstraße",Kirchstraße,0,9001934,10.0422013889,48.4078952778
900150702,Boschstraße,Boschstraße,0,9001507,9.95438944444,48.3711908333
9002728,"Herrlingen, Bahnhof",Bahnhof,1,,9.89788886521,48.4183524772
9001222,Beringerbrücke,Beringerbrücke,1,,9.96633590244,48.4046054226
900139104,Oberer Kuhberg,Oberer Kuhberg,0,9001391,9.95300833333,48.3818425
9001708,Petrusplatz,Petrusplatz,1,,9.99827484398,48.3945860356
9001706,Schützenstraße,Schützenstraße,1,,9.9974875,48.3936061111
9001707,Donaucenter,Donaucenter,1,,9.99717743073,48.394403149
9001704,Illerbrücke,Illerbrücke,1,,9.98958527778,48.3727016667
9001705,Amtsgericht,Amtsgericht,1,,9.99491941102,48.3920265606
9001702,Donaubad,Donaubad,1,,9.98689277778,48.3850519444
9001703,Jakobsruhe,Jakobsruhe,1,,9.98946910199,48.3818580858
9001700,ZUP,ZUP,1,,10.0028572149,48.392008323
9001701,Adenauerbrücke,Adenauerbrücke,1,,9.98958583333,48.3885097222
9001030,Kliniken Michelsberg,Kliniken Michelsberg,1,,9.99227080756,48.4112798567
900100401,Pauluskirche,Pauluskirche,0,9001004,9.99503440349,48.404748323
900170801,Petrusplatz,Petrusplatz,0,9001708,9.99810166998,48.3947175995
900170802,Petrusplatz,Petrusplatz,0,9001708,9.99827484398,48.3945860356
900170701,Donaucenter,Donaucenter,0,9001707,9.99717743073,48.394403149
900131102,Königstraße,Königstraße,0,9001311,9.96109037988,48.3945197924
900124101,Botanischer Garten,Botanischer Garten,0,9001241,9.95678916667,48.4249044444
900124102,Botanischer Garten,Botanischer Garten,0,9001241,9.95681694444,48.4247744444
9001745,Arena,Arena,1,,10.0056492694,48.3816857417
900155001,Firma Nanz,Firma Nanz,0,9001550,9.94379305556,48.3672063889
900276301,"Arnegg, Bildstöckle",Bildstöckle,0,9002763,9.8743,48.4133777778
900155002,Firma Nanz,Firma Nanz,0,9001550,9.94381888889,48.3671463889
900117001,Edith-Stein-Ring,Edith-Stein-Ring,0,9001170,9.99375535756,48.4400048383
9001349,Jägerstraße,Jägerstraße,1,,9.9555025,48.4001313889
900135501,Beyerstraße (nur Pausenhaltestelle),Beyerstraße (nur Pausenhaltestelle),0,9001355,9.97832916667,48.3929661111
9001964,"Burlafingen, Glöcklerstraße",Glöcklerstraße,1,,10.0651931471,48.4164232563
9001962,"Burlafingen, Dorfplatz",Dorfplatz,1,,10.0681,48.4152633333
900125501,Heilmeyersteige,Heilmeyersteige,0,9001255,9.95005417157,48.4138677774
9001961,"Burlafingen, Bahnhof",Bahnhof,1,,10.0691028372,48.4107661706
900105412,Donauhalle,Donauhalle,0,9001054,10.0112344444,48.4121075
900105411,Donauhalle,Donauhalle,0,9001054,10.0112470497,48.4121363091
9001101,Mähringer Straße,Mähringer Straße,1,,9.96734722222,48.432175
900272001,"Blaustein, Lindenstraße",Lindenstraße,0,9002720,9.93493083888,48.4085320184
900162102,Fischerhauser Weg,Fischerhauser Weg,0,9001621,9.9764650735,48.3605534532
900162101,Fischerhauser Weg,Fischerhauser Weg,0,9001621,9.97653053476,48.3604155109
9001202,Multscherschule,Multscherschule,1,,9.96772277778,48.4085138889
9001201,Fort Unterer Eselsberg,Fort Unterer Eselsberg,1,,9.96552972222,48.4114205556
9001200,Eselsberg Hasenkopf,Eselsberg Hasenkopf,1,,9.96284301666,48.4145314156
900156101,Graf-Arco-Straße,Graf-Arco-Straße,0,9001561,9.94257055556,48.3583911111
900105001,Willy-Brandt-Platz,Willy-Brandt-Platz,0,9001050,10.0017094441,48.4027036897
900156103,Graf-Arco-Straße,Graf-Arco-Straße,0,9001561,9.94152636748,48.3582871432
900156102,Graf-Arco-Straße,Graf-Arco-Straße,0,9001561,9.94244166667,48.3576583333
9001561,Graf-Arco-Straße,Graf-Arco-Straße,1,,9.94152636748,48.3582871432
9001310,Sonnenstraße,Sonnenstraße,1,,9.95846507487,48.3946647344
900132401,Fünf-Bäume-Weg Mitte,Fünf-Bäume-Weg Mitte,0,9001324,9.94501972222,48.3965033333
900124401,Staudingerstraße,Staudingerstraße,0,9001244,9.95284805556,48.4245283333
900124402,Staudingerstraße,Staudingerstraße,0,9001244,9.95263466339,48.424373648
9001032,Schillerhöhe,Schillerhöhe,1,,9.9881313682,48.4077159753
9001366,Beim B'scheid,Beim B'scheid,1,,9.97413395406,48.4017151758
9001367,Auf der Gölde,Auf der Gölde,1,,9.9668075,48.4004272222
9001360,Römerplatz,Römerplatz,1,,9.97428388889,48.3902127778
9001362,Telefunken,Telefunken,1,,9.9701575,48.3951027778
900128001,Beim Türmle,Beim Türmle,0,9001280,9.95656111111,48.40651
900128002,Beim Türmle,Beim Türmle,0,9001280,9.95646944444,48.40655
900170202,Donaubad,Donaubad,0,9001702,9.98689277778,48.3850519444
900170201,Donaubad,Donaubad,0,9001702,9.98698694444,48.3852841667
900172701,Wiley Süd,Wiley Süd,0,9001727,10.0106088448,48.3769448406
900124001,Universität Süd,Universität Süd,0,9001240,9.95633969174,48.4211654151
900103201,Schillerhöhe,Schillerhöhe,0,9001032,9.98894972222,48.4081488889
900103202,Schillerhöhe,Schillerhöhe,0,9001032,9.9881313682,48.4077159753
9002710,"Blaustein, Hofstraße",Hofstraße,1,,9.92247083333,48.4151611111
900135004,Ehinger Tor,Ehinger Tor,0,9001350,9.9804813997,48.3945805556
900135003,Ehinger Tor,Ehinger Tor,0,9001350,9.98118019801,48.3947163025
900135002,Ehinger Tor,Ehinger Tor,0,9001350,9.98100965138,48.3946650882
900135001,Ehinger Tor,Ehinger Tor,0,9001350,9.98108048888,48.3946892647
900110302,Junginger Straße,Junginger Straße,0,9001103,9.97168777103,48.4361622923
9002720,"Blaustein, Lindenstraße",Lindenstraße,1,,9.93493083888,48.4085320184
900116402,Schwarzenbergstraße,Schwarzenbergstraße,0,9001164,9.98581861111,48.44872
900101101,Justizgebäude,Justizgebäude,0,9001011,9.99294333333,48.4019483333
900101103,Justizgebäude,Justizgebäude,0,9001011,9.99209778651,48.4019629061
900101102,Justizgebäude,Justizgebäude,0,9001011,9.99283222222,48.4019797222
9001005,Haus der Begegnung,Haus der Begegnung,1,,9.99824719008,48.3976644802
9001102,Loherstraße,Loherstraße,1,,9.96869985673,48.4327460567
9001103,Junginger Straße,Junginger Straße,1,,9.97168777103,48.4361622923
900143201,"Ermingen, Panoramastraße",Panoramastraße,0,9001432,9.89622861111,48.3781341667
900143202,"Ermingen, Panoramastraße",Panoramastraße,0,9001432,9.89662314096,48.377553572
9001299,Sedanstraße,Sedanstraße,1,,9.96027867496,48.3921446118
900196402,"Burlafingen, Glöcklerstraße",Glöcklerstraße,0,9001964,10.0651931471,48.4164232563
900270401,"Blaustein, Kalte Herberge",Kalte Herberge,0,9002704,9.90887976067,48.4182914634
900108011,Eugen-Bolz-Straße,Eugen-Bolz-Straße,0,9001080,10.0174694444,48.4201075
900108012,Eugen-Bolz-Straße,Eugen-Bolz-Straße,0,9001080,10.0173578287,48.4200736483
900270402,"Blaustein, Kalte Herberge",Kalte Herberge,0,9002704,9.90803315608,48.4185365488
900154802,Firma Meiller,Firma Meiller,0,9001548,9.9361125,48.3615183333
9001296,Neunkirchenweg,Neunkirchenweg,1,,9.95987985727,48.3863216682
900154801,Firma Meiller,Firma Meiller,0,9001548,9.93624638889,48.3613138889
900172402,Memminger Straße,Memminger Straße,0,9001724,10.0037581794,48.3853376057
900170001,ZUP,ZUP,0,9001700,10.0036261596,48.3920286204
900172401,Memminger Straße,Memminger Straße,0,9001724,10.0041316667,48.3850272222
900150402,Maybachstraße,Maybachstraße,0,9001504,9.94627527778,48.3612808333
900150401,Maybachstraße,Maybachstraße,0,9001504,9.94677861111,48.3615141667
900135312,Magirusstraße,Magirusstraße,0,9001353,9.96467475962,48.3944497235
900135311,Magirusstraße,Magirusstraße,0,9001353,9.96387702515,48.3944323771
9001743,Neue Hochschule,Neue Hochschule,1,,10.0091933333,48.3795605556
9001741,Fachoberschule,Fachoberschule,1,,10.0026066667,48.3881125
900105211,Donaustadion,Donaustadion,0,9001052,10.0076333333,48.4049875
9001031,Frauensteige,Frauensteige,1,,9.99039027003,48.409656455
900105213,Donaustadion,Donaustadion,0,9001052,10.006926029,48.4051008226
900105212,Donaustadion,Donaustadion,0,9001052,10.0074894444,48.4049786111
900101202,Keplerstraße,Keplerstraße,0,9001012,9.992616374,48.4055853947
900117102,Margarete-Steiff-Weg,Margarete-Steiff-Weg,0,9001171,9.9963755883,48.4413734648
900170601,Schützenstraße,Schützenstraße,0,9001706,9.9974875,48.3936061111
900174101,Fachoberschule,Fachoberschule,0,9001741,10.0027861111,48.3881705556
9001039,Kienlesberg,Kienlesberg,1,,9.98336777778,48.4058161111
900174102,Fachoberschule,Fachoberschule,0,9001741,10.0026066667,48.3881125
9001586,DEUTZ AG,DEUTZ AG,1,,9.93283333333,48.3616647222
900153902,Ernst-Abbe-Straße,Ernst-Abbe-Straße,0,9001539,9.92857846657,48.3528266438
900153901,Ernst-Abbe-Straße,Ernst-Abbe-Straße,0,9001539,9.92882141597,48.3526277581
9001422,"Eggingen, Rathaus",Rathaus,1,,9.8788375,48.3639183333
9001421,"Eggingen, Ringinger Straße",Ringinger Straße,1,,9.87965361111,48.3612286111
900107801,Ludwig-Beck-Straße,Ludwig-Beck-Straße,0,9001078,10.0071415353,48.4221849127
900140301,Eisenbahnstraße,Eisenbahnstraße,0,9001403,9.93699163863,48.3704062098
900140302,Eisenbahnstraße,Eisenbahnstraße,0,9001403,9.93708611111,48.3701763889
